[
  {
    "login": "jfontan",
    "name": "Javi Fontan",
    "location": {
      "name": "Madrid, Spain",
      "lat": 40.4167754,
      "long": -3.7037902
    }
  },
  {
    "login": "creachadair",
    "name": "M. J. Fromberger",
    "location": null
  },
  {
    "login": "smola",
    "name": "Santiago M. Mola",
    "location": {
      "name": "Madrid, Spain",
      "lat": 40.4167754,
      "long": -3.7037902
    }
  },
  {
    "login": "m09",
    "name": null,
    "location": null
  },
  {
    "login": "juanjux",
    "name": "Juanjo Alvarez Martinez",
    "location": {
      "name": "Madrid, Spain",
      "lat": 40.4167754,
      "long": -3.7037902
    }
  },
  {
    "login": "smacker",
    "name": "Maxim Sukharev",
    "location": {
      "name": "Madrid, Spain",
      "lat": 40.4167754,
      "long": -3.7037902
    }
  },
  {
    "login": "zurk",
    "name": "Konstantin Slavnov",
    "location": null
  },
  {
    "login": "dennwc",
    "name": "Denys Smirnov",
    "location": {
      "name": "Tallinn, Estonia",
      "lat": 59.43696079999999,
      "long": 24.7535747
    }
  },
  {
    "login": "gustavmaskowitz",
    "name": "Gustav Maskowitz",
    "location": {
      "name": "Oxford, UK",
      "lat": 51.7520209,
      "long": -1.2577263
    }
  },
  {
    "login": "ajnavarro",
    "name": "Antonio Navarro Perez",
    "location": {
      "name": "Madrid, Spain",
      "lat": 40.4167754,
      "long": -3.7037902
    }
  },
  {
    "login": "eiso",
    "name": "Eiso Kant",
    "location": {
      "name": "San Francisco, CA, USA",
      "lat": 37.7749295,
      "long": -122.4194155
    }
  },
  {
    "login": "erizocosmico",
    "name": "Miguel Molina",
    "location": {
      "name": "Madrid, Spain",
      "lat": 40.4167754,
      "long": -3.7037902
    }
  },
  {
    "login": "carlosms",
    "name": "Carlos Martín",
    "location": {
      "name": "Madrid, Spain",
      "lat": 40.4167754,
      "long": -3.7037902
    }
  },
  {
    "login": "mcuadros",
    "name": "Máximo Cuadros",
    "location": {
      "name": "Madrid, Spain",
      "lat": 40.4167754,
      "long": -3.7037902
    }
  },
  {
    "login": "meyskens",
    "name": "Maartje Eyskens",
    "location": {
      "name": "Belgium",
      "lat": 50.503887,
      "long": 4.469936
    }
  },
  {
    "login": "ricardobaeta",
    "name": "Ricardo Baeta",
    "location": {
      "name": "Lisbon, Portugal",
      "lat": 38.7222524,
      "long": -9.1393366
    }
  },
  {
    "login": "dpordomingo",
    "name": "David Pordomingo",
    "location": {
      "name": "Madrid, Spain",
      "lat": 40.4167754,
      "long": -3.7037902
    }
  },
  {
    "login": "EgorBu",
    "name": "Egor Bulychev",
    "location": null
  },
  {
    "login": "rporres",
    "name": "Rafael Porres Molina",
    "location": {
      "name": "Madrid, Spain",
      "lat": 40.4167754,
      "long": -3.7037902
    }
  },
  {
    "login": "vmarkovtsev",
    "name": "Vadim Markovtsev",
    "location": {
      "name": "Madrid, Spain",
      "lat": 40.4167754,
      "long": -3.7037902
    }
  },
  {
    "login": "kuba--",
    "name": "Kuba Podgórski",
    "location": null
  },
  {
    "login": "vcoisne",
    "name": "Victor Coisne",
    "location": {
      "name": "San Francisco, CA, USA",
      "lat": 37.7749295,
      "long": -122.4194155
    }
  },
  {
    "login": "bzz",
    "name": "Alexander",
    "location": {
      "name": "Madrid, Spain",
      "lat": 40.4167754,
      "long": -3.7037902
    }
  },
  {
    "login": "se7entyse7en",
    "name": "Lou Marvin Caraig",
    "location": {
      "name": "Florence, Metropolitan City of Florence, Italy",
      "lat": 43.7695604,
      "long": 11.2558136
    }
  },
  {
    "login": "ncordon",
    "name": "Nacho Cordón",
    "location": {
      "name": "Madrid, Spain",
      "lat": 40.4167754,
      "long": -3.7037902
    }
  },
  {
    "login": "jorgeschnura",
    "name": "Jorge Schnura Becerro",
    "location": {
      "name": "Madrid, Spain",
      "lat": 40.4167754,
      "long": -3.7037902
    }
  },
  {
    "login": "Guillemdb",
    "name": "Guillem Duran Ballester",
    "location": {
      "name": "Palma, Balearic Islands, Spain",
      "lat": 39.5696005,
      "long": 2.6501603
    }
  },
  {
    "login": "margaridagsl",
    "name": "Margarida Garcia",
    "location": {
      "name": "London, UK",
      "lat": 51.5073509,
      "long": -0.1277583
    }
  },
  {
    "login": "lwsanty",
    "name": null,
    "location": null
  },
  {
    "login": "dmitryvinn",
    "name": "Dmitry Vinnik",
    "location": {
      "name": "Vancouver, BC, Canada",
      "lat": 49.2827291,
      "long": -123.1207375
    }
  },
  {
    "login": "driosalido",
    "name": "David Riosalido",
    "location": {
      "name": "Madrid, Spain",
      "lat": 40.4167754,
      "long": -3.7037902
    }
  },
  {
    "login": "jbeardly",
    "name": "Jasper Beardly",
    "location": null
  },
  {
    "login": "marnovo",
    "name": "Marcelo Novaes",
    "location": null
  },
  {
    "login": "mcarmonaa",
    "name": "Manuel Carmona",
    "location": null
  },
  {
    "login": "gomesfernanda",
    "name": "Fernanda Gomes",
    "location": {
      "name": "Madrid, Spain",
      "lat": 40.4167754,
      "long": -3.7037902
    }
  },
  {
    "login": "estherrgarcia",
    "name": "Esther García",
    "location": null
  },
  {
    "login": "warenlg",
    "name": "Waren Long",
    "location": {
      "name": "Madrid, Spain",
      "lat": 40.4167754,
      "long": -3.7037902
    }
  },
  {
    "login": "glimow",
    "name": "Tristan Kalos",
    "location": {
      "name": "Berkeley, CA, USA",
      "lat": 37.8718992,
      "long": -122.2585399
    }
  },
  {
    "login": "r0mainK",
    "name": "Romain Keramitas",
    "location": {
      "name": "Madrid, Spain",
      "lat": 40.4167754,
      "long": -3.7037902
    }
  },
  {
    "login": "irinakhismatullina",
    "name": null,
    "location": null
  },
  {
    "login": "aliciakozlowski",
    "name": "Alicia Kozlowski",
    "location": null
  },
  {
    "login": "hassensourced",
    "name": null,
    "location": null
  },
  {
    "login": "alexak0808",
    "name": null,
    "location": null
  },
  {
    "login": "bluer73",
    "name": null,
    "location": null
  },
  {
    "login": "Nicholas-Nord",
    "name": null,
    "location": null
  }
]
